{
  "type": "FeatureCollection",
  "features": [
    {
      "type": "Feature",
      "geometry": null,
      "properties": {
        "city": "Andover",
        "latitude": "41.7523",
        "zip5": "06232",
        "state": "CT",
        "store_name": "Andover Deli And Mini Mart 1",
        "zip4": null,
        "address2": null,
        "objectid": "197632",
        "longitude": "-72.3975",
        "county": "TOLLAND",
        "address": "144 Jonathan Trumbull Hwy"
      }
    },
    {
      "type": "Feature",
      "geometry": null,
      "properties": {
        "city": "Andover",
        "latitude": "41.7387",
        "zip5": "06232",
        "state": "CT",
        "store_name": "Andover Express",
        "zip4": "1312",
        "address2": null,
        "objectid": "218496",
        "longitude": "-72.3714",
        "county": "TOLLAND",
        "address": "380 Route 6"
      }
    },
    {
      "type": "Feature",
      "geometry": null,
      "properties": {
        "city": "Andover",
        "latitude": "41.7392",
        "zip5": "06232",
        "state": "CT",
        "store_name": "Andover Farmer's Market",
        "zip4": "1319",
        "address2": null,
        "objectid": "70382",
        "longitude": "-72.3741",
        "county": "TOLLAND",
        "address": "359 Route 6"
      }
    },
    {
      "type": "Feature",
      "geometry": null,
      "properties": {
        "city": "Andover",
        "latitude": "41.7328",
        "zip5": "06232",
        "state": "CT",
        "store_name": "Andover Xtra Mart 10012",
        "zip4": "1320",
        "address2": null,
        "objectid": "16792",
        "longitude": "-72.3574",
        "county": "TOLLAND",
        "address": "497 Route 6"
      }
    },
    {
      "type": "Feature",
      "geometry": null,
      "properties": {
        "city": "Ansonia",
        "latitude": "41.3522",
        "zip5": "06401",
        "state": "CT",
        "store_name": "Ansonia Mini Mart LLC",
        "zip4": "1629",
        "address2": null,
        "objectid": "170869",
        "longitude": "-73.081",
        "county": "NEW HAVEN",
        "address": "147 N Main St"
      }
    },
    {
      "type": "Feature",
      "geometry": null,
      "properties": {
        "city": "Ansonia",
        "latitude": "41.3447",
        "zip5": "06401",
        "state": "CT",
        "store_name": "Ansonia Xpressmart",
        "zip4": "1146",
        "address2": null,
        "objectid": "99291",
        "longitude": "-73.0907",
        "county": "NEW HAVEN",
        "address": "180 Wakelee Ave"
      }
    },
    {
      "type": "Feature",
      "geometry": null,
      "properties": {
        "city": "Ansonia",
        "latitude": "41.3425",
        "zip5": "06401",
        "state": "CT",
        "store_name": "Big Daddy Food Mart Llc n/a",
        "zip4": "3202",
        "address2": null,
        "objectid": "19050",
        "longitude": "-73.0728",
        "county": "NEW HAVEN",
        "address": "59 Beaver St"
      }
    },
    {
      "type": "Feature",
      "geometry": null,
      "properties": {
        "city": "Ansonia",
        "latitude": "41.3399",
        "zip5": "06401",
        "state": "CT",
        "store_name": "Big Y 47",
        "zip4": null,
        "address2": null,
        "objectid": "45218",
        "longitude": "-73.078",
        "county": "NEW HAVEN",
        "address": "403 Main St"
      }
    },
    {
      "type": "Feature",
      "geometry": null,
      "properties": {
        "city": "Ansonia",
        "latitude": "41.333",
        "zip5": "06401",
        "state": "CT",
        "store_name": "Cumberland Farms, Inc 4716",
        "zip4": "2213",
        "address2": null,
        "objectid": "161356",
        "longitude": "-73.084",
        "county": "NEW HAVEN",
        "address": "5 Pershing Dr"
      }
    },
    {
      "type": "Feature",
      "geometry": null,
      "properties": {
        "city": "Ansonia",
        "latitude": "41.3371",
        "zip5": "06401",
        "state": "CT",
        "store_name": "CVS PHARMACY  718",
        "zip4": "2229",
        "address2": null,
        "objectid": "27779",
        "longitude": "-73.0827",
        "county": "NEW HAVEN",
        "address": "2436 Pershing Dr"
      }
    },
    {
      "type": "Feature",
      "geometry": null,
      "properties": {
        "city": "Ansonia",
        "latitude": "41.3515",
        "zip5": "06401",
        "state": "CT",
        "store_name": "DAILY MART",
        "zip4": "1629",
        "address2": null,
        "objectid": "58375",
        "longitude": "-73.0809",
        "county": "NEW HAVEN",
        "address": "131 N Main St"
      }
    },
    {
      "type": "Feature",
      "geometry": null,
      "properties": {
        "city": "Ansonia",
        "latitude": "41.3413",
        "zip5": "06401",
        "state": "CT",
        "store_name": "Daniel's Market Llc",
        "zip4": "2407",
        "address2": null,
        "objectid": "40628",
        "longitude": "-73.0709",
        "county": "NEW HAVEN",
        "address": "3 Hill St"
      }
    },
    {
      "type": "Feature",
      "geometry": null,
      "properties": {
        "city": "Ansonia",
        "latitude": "41.3411",
        "zip5": "06401",
        "state": "CT",
        "store_name": "Europol Deli Gifts",
        "zip4": "2303",
        "address2": null,
        "objectid": "142760",
        "longitude": "-73.078",
        "county": "NEW HAVEN",
        "address": "354 Main St"
      }
    },
    {
      "type": "Feature",
      "geometry": null,
      "properties": {
        "city": "Ansonia",
        "latitude": "41.3353",
        "zip5": "06401",
        "state": "CT",
        "store_name": "Fuel First",
        "zip4": "2310",
        "address2": null,
        "objectid": "210786",
        "longitude": "-73.0759",
        "county": "NEW HAVEN",
        "address": "575 Main St"
      }
    },
    {
      "type": "Feature",
      "geometry": null,
      "properties": {
        "city": "Ansonia",
        "latitude": "41.331",
        "zip5": "06401",
        "state": "CT",
        "store_name": "Main Street Shell",
        "zip4": "2311",
        "address2": null,
        "objectid": "64646",
        "longitude": "-73.0774",
        "county": "NEW HAVEN",
        "address": "694 Main St"
      }
    },
    {
      "type": "Feature",
      "geometry": null,
      "properties": {
        "city": "Ansonia",
        "latitude": "41.3457",
        "zip5": "06401",
        "state": "CT",
        "store_name": "Maple Mini Mart",
        "zip4": "1222",
        "address2": null,
        "objectid": "5680",
        "longitude": "-73.0827",
        "county": "NEW HAVEN",
        "address": "18 Maple St"
      }
    },
    {
      "type": "Feature",
      "geometry": null,
      "properties": {
        "city": "Ansonia",
        "latitude": "41.3402",
        "zip5": "06401",
        "state": "CT",
        "store_name": "RITE AID 667",
        "zip4": "2307",
        "address2": null,
        "objectid": "81746",
        "longitude": "-73.078",
        "county": "NEW HAVEN",
        "address": "404 Main St"
      }
    },
    {
      "type": "Feature",
      "geometry": null,
      "properties": {
        "city": "Ansonia",
        "latitude": "41.3386",
        "zip5": "06401",
        "state": "CT",
        "store_name": "S A Mart & Deli",
        "zip4": "1151",
        "address2": null,
        "objectid": "234824",
        "longitude": "-73.0905",
        "county": "NEW HAVEN",
        "address": "95 Wakelee Ave"
      }
    },
    {
      "type": "Feature",
      "geometry": null,
      "properties": {
        "city": "Ansonia",
        "latitude": "41.3425",
        "zip5": "06401",
        "state": "CT",
        "store_name": "Ssdj Minimart, Llc",
        "zip4": "1859",
        "address2": null,
        "objectid": "169558",
        "longitude": "-73.0786",
        "county": "NEW HAVEN",
        "address": "262 Main St"
      }
    },
    {
      "type": "Feature",
      "geometry": null,
      "properties": {
        "city": "Ansonia",
        "latitude": "41.334",
        "zip5": "06401",
        "state": "CT",
        "store_name": "Stop & Shop 635",
        "zip4": "2101",
        "address2": "Ste 1",
        "objectid": "58900",
        "longitude": "-73.0862",
        "county": "NEW HAVEN",
        "address": "100 Division St"
      }
    },
    {
      "type": "Feature",
      "geometry": null,
      "properties": {
        "city": "Ansonia",
        "latitude": "41.3443",
        "zip5": "06401",
        "state": "CT",
        "store_name": "Target 2249",
        "zip4": "1812",
        "address2": null,
        "objectid": "90049",
        "longitude": "-73.0798",
        "county": "NEW HAVEN",
        "address": "20 W Main St"
      }
    },
    {
      "type": "Feature",
      "geometry": null,
      "properties": {
        "city": "Ansonia",
        "latitude": "41.3454",
        "zip5": "06401",
        "state": "CT",
        "store_name": "Wakelee Market",
        "zip4": "1153",
        "address2": null,
        "objectid": "125838",
        "longitude": "-73.0906",
        "county": "NEW HAVEN",
        "address": "192 Wakelee Ave"
      }
    },
    {
      "type": "Feature",
      "geometry": null,
      "properties": {
        "city": "Ashford",
        "latitude": "41.8635",
        "zip5": "06278",
        "state": "CT",
        "store_name": "Cumberland Farms 4693",
        "zip4": "1530",
        "address2": null,
        "objectid": "161372",
        "longitude": "-72.1623",
        "county": "WINDHAM",
        "address": "33 Pompey Hollow Rd"
      }
    },
    {
      "type": "Feature",
      "geometry": null,
      "properties": {
        "city": "Ashford",
        "latitude": "41.8564",
        "zip5": "06278",
        "state": "CT",
        "store_name": "Dollar General 17740",
        "zip4": "1546",
        "address2": null,
        "objectid": "146158",
        "longitude": "-72.1787",
        "county": "WINDHAM",
        "address": "5 Squaw Hollow Rd"
      }
    },
    {
      "type": "Feature",
      "geometry": null,
      "properties": {
        "city": "Ashford",
        "latitude": "41.857",
        "zip5": "06278",
        "state": "CT",
        "store_name": "Squaw Hollow Xtra Mart 10083",
        "zip4": "1316",
        "address2": null,
        "objectid": "70933",
        "longitude": "-72.1788",
        "county": "WINDHAM",
        "address": "9 Nott Hwy"
      }
    },
    {
      "type": "Feature",
      "geometry": null,
      "properties": {
        "city": "Avon",
        "latitude": "41.8121",
        "zip5": "06001",
        "state": "CT",
        "store_name": "Big Y Supermarkets 53",
        "zip4": "4352",
        "address2": null,
        "objectid": "110386",
        "longitude": "-72.8516",
        "county": "HARTFORD",
        "address": "255 W Main St"
      }
    },
    {
      "type": "Feature",
      "geometry": null,
      "properties": {
        "city": "Avon",
        "latitude": "41.8154",
        "zip5": "06001",
        "state": "CT",
        "store_name": "CVS Pharmacy  1180",
        "zip4": "3643",
        "address2": null,
        "objectid": "162283",
        "longitude": "-72.8617",
        "county": "HARTFORD",
        "address": "358 W Main St"
      }
    },
    {
      "type": "Feature",
      "geometry": null,
      "properties": {
        "city": "Avon",
        "latitude": "41.8135",
        "zip5": "06001",
        "state": "CT",
        "store_name": "The Fresh Market 127",
        "zip4": null,
        "address2": null,
        "objectid": "53019",
        "longitude": "-72.8565",
        "county": "HARTFORD",
        "address": "315 W Main St"
      }
    },
    {
      "type": "Feature",
      "geometry": null,
      "properties": {
        "city": "Avon",
        "latitude": "41.8121",
        "zip5": "06001",
        "state": "CT",
        "store_name": "Walmart 2899",
        "zip4": "4352",
        "address2": "Ste 1",
        "objectid": "190921",
        "longitude": "-72.8516",
        "county": "HARTFORD",
        "address": "255 W Main St"
      }
    },
    {
      "type": "Feature",
      "geometry": null,
      "properties": {
        "city": "Avon",
        "latitude": "41.814",
        "zip5": "06001",
        "state": "CT",
        "store_name": "Whole Foods Market 10770",
        "zip4": "3625",
        "address2": null,
        "objectid": "235817",
        "longitude": "-72.8392",
        "county": "HARTFORD",
        "address": "50 Climax Rd"
      }
    },
    {
      "type": "Feature",
      "geometry": null,
      "properties": {
        "city": "Baltic",
        "latitude": "41.6171",
        "zip5": "06330",
        "state": "CT",
        "store_name": "BALTIC CONVENIENCE STORE",
        "zip4": "1343",
        "address2": null,
        "objectid": "60118",
        "longitude": "-72.0853",
        "county": "NEW LONDON",
        "address": "8 W Main St # 821"
      }
    },
    {
      "type": "Feature",
      "geometry": null,
      "properties": {
        "city": "Baltic",
        "latitude": "41.6133",
        "zip5": "06330",
        "state": "CT",
        "store_name": "Cumberland Farms, Inc 4698",
        "zip4": "1329",
        "address2": null,
        "objectid": "161353",
        "longitude": "-72.0751",
        "county": "NEW LONDON",
        "address": "184 Main St"
      }
    },
    {
      "type": "Feature",
      "geometry": null,
      "properties": {
        "city": "Bantam",
        "latitude": "41.7244",
        "zip5": "06750",
        "state": "CT",
        "store_name": "Bantam Market",
        "zip4": "1605",
        "address2": null,
        "objectid": "16625",
        "longitude": "-73.2362",
        "county": "LITCHFIELD",
        "address": "793 Bantam Rd"
      }
    },
    {
      "type": "Feature",
      "geometry": null,
      "properties": {
        "city": "Barkhamsted",
        "latitude": "41.9107",
        "zip5": "06063",
        "state": "CT",
        "store_name": "Dollar General Store 18060",
        "zip4": "3228",
        "address2": null,
        "objectid": "41243",
        "longitude": "-73.041",
        "county": "LITCHFIELD",
        "address": "390 New Hartford Rd"
      }
    },
    {
      "type": "Feature",
      "geometry": null,
      "properties": {
        "city": "Barkhamsted",
        "latitude": "41.9109",
        "zip5": "06063",
        "state": "CT",
        "store_name": "Dollar Tree 6842",
        "zip4": "3200",
        "address2": "Ste 1",
        "objectid": "140691",
        "longitude": "-73.0405",
        "county": "LITCHFIELD",
        "address": "380 New Hartford Rd"
      }
    },
    {
      "type": "Feature",
      "geometry": null,
      "properties": {
        "city": "Barkhamsted",
        "latitude": "41.9119",
        "zip5": "06063",
        "state": "CT",
        "store_name": "Pleasant Valley General Store",
        "zip4": "3311",
        "address2": null,
        "objectid": "51583",
        "longitude": "-72.9885",
        "county": "LITCHFIELD",
        "address": "111 River Rd"
      }
    },
    {
      "type": "Feature",
      "geometry": null,
      "properties": {
        "city": "Beacon Falls",
        "latitude": "41.4433",
        "zip5": "06403",
        "state": "CT",
        "store_name": "Beacon Falls Xpress Mart LLC",
        "zip4": "1127",
        "address2": null,
        "objectid": "54612",
        "longitude": "-73.0629",
        "county": "NEW HAVEN",
        "address": "25 N Main St"
      }
    },
    {
      "type": "Feature",
      "geometry": null,
      "properties": {
        "city": "Berlin",
        "latitude": "41.6469",
        "zip5": "06037",
        "state": "CT",
        "store_name": "AMG Retail I 525",
        "zip4": "1503",
        "address2": null,
        "objectid": "26235",
        "longitude": "-72.7302",
        "county": "HARTFORD",
        "address": "109 Berlin Tpke"
      }
    },
    {
      "type": "Feature",
      "geometry": null,
      "properties": {
        "city": "Berlin",
        "latitude": "41.5977",
        "zip5": "06037",
        "state": "CT",
        "store_name": "AMG Retail I 565",
        "zip4": "3617",
        "address2": null,
        "objectid": "203976",
        "longitude": "-72.7548",
        "county": "HARTFORD",
        "address": "2005 Berlin Tpke"
      }
    },
    {
      "type": "Feature",
      "geometry": null,
      "properties": {
        "city": "Berlin",
        "latitude": "41.6415",
        "zip5": "06037",
        "state": "CT",
        "store_name": "CVS PHARMACY  1155",
        "zip4": "1506",
        "address2": null,
        "objectid": "103222",
        "longitude": "-72.7335",
        "county": "HARTFORD",
        "address": "308 Berlin Tpke"
      }
    },
    {
      "type": "Feature",
      "geometry": null,
      "properties": {
        "city": "Berlin",
        "latitude": "41.6311",
        "zip5": "06037",
        "state": "CT",
        "store_name": "Dollar Tree 7150",
        "zip4": null,
        "address2": null,
        "objectid": "200497",
        "longitude": "-72.7435",
        "county": "HARTFORD",
        "address": "227 Webster Square Rd"
      }
    },
    {
      "type": "Feature",
      "geometry": null,
      "properties": {
        "city": "Berlin",
        "latitude": "41.6265",
        "zip5": "06037",
        "state": "CT",
        "store_name": "Food Bag Citgo Quik Mart 540",
        "zip4": "2303",
        "address2": null,
        "objectid": "208782",
        "longitude": "-72.7525",
        "county": "HARTFORD",
        "address": "1289 Farmington Ave"
      }
    },
    {
      "type": "Feature",
      "geometry": null,
      "properties": {
        "city": "Berlin",
        "latitude": "41.6416",
        "zip5": "06037",
        "state": "CT",
        "store_name": "Gulf",
        "zip4": "1505",
        "address2": null,
        "objectid": "167725",
        "longitude": "-72.7329",
        "county": "HARTFORD",
        "address": "301 Berlin Tpke"
      }
    },
    {
      "type": "Feature",
      "geometry": null,
      "properties": {
        "city": "Berlin",
        "latitude": "41.644",
        "zip5": "06037",
        "state": "CT",
        "store_name": "Happy Mart",
        "zip4": "1354",
        "address2": null,
        "objectid": "247340",
        "longitude": "-72.7712",
        "county": "HARTFORD",
        "address": "164 New Britain Rd"
      }
    },
    {
      "type": "Feature",
      "geometry": null,
      "properties": {
        "city": "Berlin",
        "latitude": "41.6306",
        "zip5": "06037",
        "state": "CT",
        "store_name": "Ocean State Job Lot 313",
        "zip4": "2328",
        "address2": null,
        "objectid": "30315",
        "longitude": "-72.7438",
        "county": "HARTFORD",
        "address": "207 Webster Square Rd"
      }
    },
    {
      "type": "Feature",
      "geometry": null,
      "properties": {
        "city": "Berlin",
        "latitude": "41.6427",
        "zip5": "06037",
        "state": "CT",
        "store_name": "Shayona Grocery Llc",
        "zip4": "1505",
        "address2": null,
        "objectid": "68607",
        "longitude": "-72.7325",
        "county": "HARTFORD",
        "address": "279 Berlin Tpke"
      }
    },
    {
      "type": "Feature",
      "geometry": null,
      "properties": {
        "city": "Berlin",
        "latitude": "41.6291",
        "zip5": "06037",
        "state": "CT",
        "store_name": "Stop & Shop 614",
        "zip4": "5200",
        "address2": "Ste 1",
        "objectid": "76057",
        "longitude": "-72.7574",
        "county": "HARTFORD",
        "address": "1135 Farmington Ave"
      }
    },
    {
      "type": "Feature",
      "geometry": null,
      "properties": {
        "city": "Berlin",
        "latitude": "41.6037",
        "zip5": "06037",
        "state": "CT",
        "store_name": "The Olive Bazaar Llc",
        "zip4": "3676",
        "address2": null,
        "objectid": "182733",
        "longitude": "-72.7504",
        "county": "HARTFORD",
        "address": "1749 Berlin Tpke"
      }
    },
    {
      "type": "Feature",
      "geometry": null,
      "properties": {
        "city": "Berlin",
        "latitude": "41.6323",
        "zip5": "06037",
        "state": "CT",
        "store_name": "WALGREENS 10119",
        "zip4": "2219",
        "address2": null,
        "objectid": "95838",
        "longitude": "-72.7622",
        "county": "HARTFORD",
        "address": "980 Farmington Ave"
      }
    },
    {
      "type": "Feature",
      "geometry": null,
      "properties": {
        "city": "Bethel",
        "latitude": "41.4169",
        "zip5": "06801",
        "state": "CT",
        "store_name": "7 Eleven (25905G) 25905G",
        "zip4": "1032",
        "address2": null,
        "objectid": "160825",
        "longitude": "-73.3988",
        "county": "FAIRFIELD",
        "address": "17 Stony Hill Rd"
      }
    },
    {
      "type": "Feature",
      "geometry": null,
      "properties": {
        "city": "Bethel",
        "latitude": "41.4146",
        "zip5": "06801",
        "state": "CT",
        "store_name": "Big Y World Class Market 82",
        "zip4": "3059",
        "address2": null,
        "objectid": "91177",
        "longitude": "-73.3816",
        "county": "FAIRFIELD",
        "address": "83 Stony Hill Rd"
      }
    },
    {
      "type": "Feature",
      "geometry": null,
      "properties": {
        "city": "Bethel",
        "latitude": "41.3709",
        "zip5": "06801",
        "state": "CT",
        "store_name": "Caraluzzis Bethel Market",
        "zip4": "2506",
        "address2": null,
        "objectid": "58467",
        "longitude": "-73.4101",
        "county": "FAIRFIELD",
        "address": "98 Greenwood Ave"
      }
    },
    {
      "type": "Feature",
      "geometry": null,
      "properties": {
        "city": "Bethel",
        "latitude": "41.378",
        "zip5": "06801",
        "state": "CT",
        "store_name": "CVS PHARMACY  1109",
        "zip4": "1906",
        "address2": null,
        "objectid": "34447",
        "longitude": "-73.4176",
        "county": "FAIRFIELD",
        "address": "7 Durant Ave"
      }
    },
    {
      "type": "Feature",
      "geometry": null,
      "properties": {
        "city": "Bethel",
        "latitude": "41.4142",
        "zip5": "06801",
        "state": "CT",
        "store_name": "Dollar Tree 5009",
        "zip4": "3038",
        "address2": null,
        "objectid": "56583",
        "longitude": "-73.3795",
        "county": "FAIRFIELD",
        "address": "83B Stony Hill Rd"
      }
    },
    {
      "type": "Feature",
      "geometry": null,
      "properties": {
        "city": "Bethel",
        "latitude": "41.3718",
        "zip5": "06801",
        "state": "CT",
        "store_name": "Food Bag Citgo Quik Mart 517",
        "zip4": "2529",
        "address2": null,
        "objectid": "207652",
        "longitude": "-73.4078",
        "county": "FAIRFIELD",
        "address": "77 Greenwood Ave"
      }
    },
    {
      "type": "Feature",
      "geometry": null,
      "properties": {
        "city": "Bethel",
        "latitude": "41.3695",
        "zip5": "06801",
        "state": "CT",
        "store_name": "Haris & Razi Petroluem",
        "zip4": "2001",
        "address2": null,
        "objectid": "192887",
        "longitude": "-73.4221",
        "county": "FAIRFIELD",
        "address": "3335 Grassy Plain St"
      }
    },
    {
      "type": "Feature",
      "geometry": null,
      "properties": {
        "city": "Bethel",
        "latitude": "41.4142",
        "zip5": "06801",
        "state": "CT",
        "store_name": "Henny Penny - Bethel 88",
        "zip4": "3037",
        "address2": null,
        "objectid": "119926",
        "longitude": "-73.3774",
        "county": "FAIRFIELD",
        "address": "82 Stony Hill Rd"
      }
    },
    {
      "type": "Feature",
      "geometry": null,
      "properties": {
        "city": "Bethel",
        "latitude": "41.3755",
        "zip5": "06801",
        "state": "CT",
        "store_name": "La Placita Of Bethel Llc",
        "zip4": "2497",
        "address2": null,
        "objectid": "2191",
        "longitude": "-73.4232",
        "county": "FAIRFIELD",
        "address": "289 Greenwood Ave"
      }
    },
    {
      "type": "Feature",
      "geometry": null,
      "properties": {
        "city": "Bethel",
        "latitude": "41.3748",
        "zip5": "06801",
        "state": "CT",
        "store_name": "M & F Quickmart, Llc",
        "zip4": "2402",
        "address2": null,
        "objectid": "240143",
        "longitude": "-73.4237",
        "county": "FAIRFIELD",
        "address": "295 Greenwood Ave"
      }
    },
    {
      "type": "Feature",
      "geometry": null,
      "properties": {
        "city": "Bethel",
        "latitude": "41.3746",
        "zip5": "06801",
        "state": "CT",
        "store_name": "Rite Aid 10382",
        "zip4": "2402",
        "address2": null,
        "objectid": "147677",
        "longitude": "-73.4235",
        "county": "FAIRFIELD",
        "address": "289 Greenwood Ave"
      }
    },
    {
      "type": "Feature",
      "geometry": null,
      "properties": {
        "city": "Bethel",
        "latitude": "41.4163",
        "zip5": "06801",
        "state": "CT",
        "store_name": "TARGET 1528",
        "zip4": "1030",
        "address2": null,
        "objectid": "81023",
        "longitude": "-73.4024",
        "county": "FAIRFIELD",
        "address": "7 Stony Hill Rd"
      }
    },
    {
      "type": "Feature",
      "geometry": null,
      "properties": {
        "city": "Bethlehem",
        "latitude": "41.6347",
        "zip5": "06751",
        "state": "CT",
        "store_name": "Sunnyridge Supermarket LLC",
        "zip4": "2030",
        "address2": null,
        "objectid": "24587",
        "longitude": "-73.2093",
        "county": "LITCHFIELD",
        "address": "82 Main St S"
      }
    },
    {
      "type": "Feature",
      "geometry": null,
      "properties": {
        "city": "Bloomfield",
        "latitude": "41.83",
        "zip5": "06002",
        "state": "CT",
        "store_name": "Bloomfield Gas",
        "zip4": "2420",
        "address2": null,
        "objectid": "81868",
        "longitude": "-72.7347",
        "county": "HARTFORD",
        "address": "47 Jerome Ave"
      }
    },
    {
      "type": "Feature",
      "geometry": null,
      "properties": {
        "city": "Bloomfield",
        "latitude": "41.8555",
        "zip5": "06002",
        "state": "CT",
        "store_name": "Cumberland Farms, Inc 4746",
        "zip4": "1313",
        "address2": null,
        "objectid": "161492",
        "longitude": "-72.706",
        "county": "HARTFORD",
        "address": "6 Old Windsor Rd"
      }
    },
    {
      "type": "Feature",
      "geometry": null,
      "properties": {
        "city": "Bloomfield",
        "latitude": "41.8177",
        "zip5": "06002",
        "state": "CT",
        "store_name": "CVS PHARMACY  1102",
        "zip4": "3148",
        "address2": null,
        "objectid": "103217",
        "longitude": "-72.7138",
        "county": "HARTFORD",
        "address": "341 Cottage Grove Rd"
      }
    },
    {
      "type": "Feature",
      "geometry": null,
      "properties": {
        "city": "Bloomfield",
        "latitude": "41.8291",
        "zip5": "06002",
        "state": "CT",
        "store_name": "CVS Pharmacy 1903",
        "zip4": null,
        "address2": null,
        "objectid": "162302",
        "longitude": "-72.7333",
        "county": "HARTFORD",
        "address": "796 PARK AVE."
      }
    },
    {
      "type": "Feature",
      "geometry": null,
      "properties": {
        "city": "Bloomfield",
        "latitude": "41.8232",
        "zip5": "06002",
        "state": "CT",
        "store_name": "Dollar General 19060",
        "zip4": "2700",
        "address2": null,
        "objectid": "188680",
        "longitude": "-72.6963",
        "county": "HARTFORD",
        "address": "1051 Blue Hills Ave"
      }
    },
    {
      "type": "Feature",
      "geometry": null,
      "properties": {
        "city": "Bloomfield",
        "latitude": "41.8172",
        "zip5": "06002",
        "state": "CT",
        "store_name": "DOLLAR TREE 1128",
        "zip4": "3117",
        "address2": null,
        "objectid": "86520",
        "longitude": "-72.7113",
        "county": "HARTFORD",
        "address": "299 Cottage Grove Rd"
      }
    },
    {
      "type": "Feature",
      "geometry": null,
      "properties": {
        "city": "Bloomfield",
        "latitude": "41.8347",
        "zip5": "06002",
        "state": "CT",
        "store_name": "Family Dollar 8437",
        "zip4": "2034",
        "address2": "Ste 1",
        "objectid": "171620",
        "longitude": "-72.7373",
        "county": "HARTFORD",
        "address": "38 Tunxis Ave"
      }
    },
    {
      "type": "Feature",
      "geometry": null,
      "properties": {
        "city": "Bloomfield",
        "latitude": "41.8228",
        "zip5": "06002",
        "state": "CT",
        "store_name": "Fresh Farms Market 3",
        "zip4": "2726",
        "address2": null,
        "objectid": "225364",
        "longitude": "-72.6962",
        "county": "HARTFORD",
        "address": "1055 Blue Hills Ave"
      }
    },
    {
      "type": "Feature",
      "geometry": null,
      "properties": {
        "city": "Bloomfield",
        "latitude": "41.8359",
        "zip5": "06002",
        "state": "CT",
        "store_name": "Geisslers Supermarket",
        "zip4": "2030",
        "address2": "Ste 1",
        "objectid": "79534",
        "longitude": "-72.7383",
        "county": "HARTFORD",
        "address": "40 Tunxis Ave"
      }
    },
    {
      "type": "Feature",
      "geometry": null,
      "properties": {
        "city": "Bloomfield",
        "latitude": "41.8309",
        "zip5": "06002",
        "state": "CT",
        "store_name": "Isaac,s Mini Food Mart 1",
        "zip4": "2339",
        "address2": null,
        "objectid": "92287",
        "longitude": "-72.7403",
        "county": "HARTFORD",
        "address": "18 Mountain Ave"
      }
    },
    {
      "type": "Feature",
      "geometry": null,
      "properties": {
        "city": "Bloomfield",
        "latitude": "41.8308",
        "zip5": "06002",
        "state": "CT",
        "store_name": "Ocean State Job Lot 322",
        "zip4": "2339",
        "address2": null,
        "objectid": "30318",
        "longitude": "-72.7412",
        "county": "HARTFORD",
        "address": "20 Mountain Ave"
      }
    },
    {
      "type": "Feature",
      "geometry": null,
      "properties": {
        "city": "Bloomfield",
        "latitude": "41.8152",
        "zip5": "06002",
        "state": "CT",
        "store_name": "Saba Live Poultry Inc",
        "zip4": "3512",
        "address2": null,
        "objectid": "1116",
        "longitude": "-72.709",
        "county": "HARTFORD",
        "address": "52 Granby St"
      }
    },
    {
      "type": "Feature",
      "geometry": null,
      "properties": {
        "city": "Bloomfield",
        "latitude": "41.816",
        "zip5": "06002",
        "state": "CT",
        "store_name": "Safia3",
        "zip4": "3711",
        "address2": null,
        "objectid": "174734",
        "longitude": "-72.6955",
        "county": "HARTFORD",
        "address": "925 Blue Hills Ave"
      }
    },
    {
      "type": "Feature",
      "geometry": null,
      "properties": {
        "city": "Bloomfield",
        "latitude": "41.8185",
        "zip5": "06002",
        "state": "CT",
        "store_name": "Shell Quick Mart",
        "zip4": "3714",
        "address2": null,
        "objectid": "133722",
        "longitude": "-72.6955",
        "county": "HARTFORD",
        "address": "991 Blue Hills Ave"
      }
    },
    {
      "type": "Feature",
      "geometry": null,
      "properties": {
        "city": "Bloomfield",
        "latitude": "41.8173",
        "zip5": "06002",
        "state": "CT",
        "store_name": "Stop & Shop 651",
        "zip4": "3148",
        "address2": null,
        "objectid": "14344",
        "longitude": "-72.7121",
        "county": "HARTFORD",
        "address": "313 Cottage Grove Rd"
      }
    },
    {
      "type": "Feature",
      "geometry": null,
      "properties": {
        "city": "Bloomfield",
        "latitude": "41.8356",
        "zip5": "06002",
        "state": "CT",
        "store_name": "Tunxis Food Mart",
        "zip4": "2006",
        "address2": null,
        "objectid": "129718",
        "longitude": "-72.7373",
        "county": "HARTFORD",
        "address": "36 Tunxis Ave"
      }
    },
    {
      "type": "Feature",
      "geometry": null,
      "properties": {
        "city": "Bloomfield",
        "latitude": "41.8297",
        "zip5": "06002",
        "state": "CT",
        "store_name": "Vrunda Llc",
        "zip4": "2417",
        "address2": null,
        "objectid": "191526",
        "longitude": "-72.7344",
        "county": "HARTFORD",
        "address": "818 Park Ave"
      }
    },
    {
      "type": "Feature",
      "geometry": null,
      "properties": {
        "city": "Bloomfield",
        "latitude": "41.8299",
        "zip5": "06002",
        "state": "CT",
        "store_name": "Walgreens 17398",
        "zip4": "2469",
        "address2": null,
        "objectid": "187004",
        "longitude": "-72.7351",
        "county": "HARTFORD",
        "address": "835 Park Ave"
      }
    },
    {
      "type": "Feature",
      "geometry": null,
      "properties": {
        "city": "Bloomfield",
        "latitude": "41.8201",
        "zip5": "06002",
        "state": "CT",
        "store_name": "World Fish",
        "zip4": "3715",
        "address2": null,
        "objectid": "221383",
        "longitude": "-72.6958",
        "county": "HARTFORD",
        "address": "1023 Blue Hills Ave"
      }
    },
    {
      "type": "Feature",
      "geometry": null,
      "properties": {
        "city": "Bolton",
        "latitude": "41.7505",
        "zip5": "06043",
        "state": "CT",
        "store_name": "A-1 Food Store No",
        "zip4": "7714",
        "address2": null,
        "objectid": "229438",
        "longitude": "-72.4386",
        "county": "TOLLAND",
        "address": "140B West St"
      }
    },
    {
      "type": "Feature",
      "geometry": null,
      "properties": {
        "city": "Bolton",
        "latitude": "41.7969",
        "zip5": "06043",
        "state": "CT",
        "store_name": "Dollar General 23232",
        "zip4": "7439",
        "address2": null,
        "objectid": "9290",
        "longitude": "-72.4247",
        "county": "TOLLAND",
        "address": "1100 Boston Tpke"
      }
    },
    {
      "type": "Feature",
      "geometry": null,
      "properties": {
        "city": "Bozrah",
        "latitude": "41.5072",
        "zip5": "06334",
        "state": "CT",
        "store_name": "Best Way",
        "zip4": "1516",
        "address2": null,
        "objectid": "167250",
        "longitude": "-72.1486",
        "county": "NEW LONDON",
        "address": "419 Salem Tpke"
      }
    },
    {
      "type": "Feature",
      "geometry": null,
      "properties": {
        "city": "Branford",
        "latitude": "41.2891",
        "zip5": "06405",
        "state": "CT",
        "store_name": "350 Foxon Food Mart LLC 01",
        "zip4": "3766",
        "address2": null,
        "objectid": "26768",
        "longitude": "-72.801",
        "county": "NEW HAVEN",
        "address": "202 E Main St"
      }
    },
    {
      "type": "Feature",
      "geometry": null,
      "properties": {
        "city": "Branford",
        "latitude": "41.2759",
        "zip5": "06405",
        "state": "CT",
        "store_name": "Aldi 73116",
        "zip4": "3540",
        "address2": "Unit 1",
        "objectid": "4683",
        "longitude": "-72.8268",
        "county": "NEW HAVEN",
        "address": "1151 W Main St"
      }
    },
    {
      "type": "Feature",
      "geometry": null,
      "properties": {
        "city": "Branford",
        "latitude": "41.2825",
        "zip5": "06405",
        "state": "CT",
        "store_name": "Big Y Supermarkets 12",
        "zip4": "3732",
        "address2": null,
        "objectid": "164357",
        "longitude": "-72.8108",
        "county": "NEW HAVEN",
        "address": "1060 Main St"
      }
    },
    {
      "type": "Feature",
      "geometry": null,
      "properties": {
        "city": "Branford",
        "latitude": "41.2801",
        "zip5": "06405",
        "state": "CT",
        "store_name": "Caron's Corner,inc",
        "zip4": "3809",
        "address2": null,
        "objectid": "58319",
        "longitude": "-72.8075",
        "county": "NEW HAVEN",
        "address": "147 Montowese St"
      }
    },
    {
      "type": "Feature",
      "geometry": null,
      "properties": {
        "city": "Branford",
        "latitude": "41.2904",
        "zip5": "06405",
        "state": "CT",
        "store_name": "Cumberland Farms, Inc 4751",
        "zip4": "3102",
        "address2": null,
        "objectid": "161497",
        "longitude": "-72.7978",
        "county": "NEW HAVEN",
        "address": "227 East Main St"
      }
    },
    {
      "type": "Feature",
      "geometry": null,
      "properties": {
        "city": "Branford",
        "latitude": "41.2752",
        "zip5": "06405",
        "state": "CT",
        "store_name": "CVS PHARMACY 172",
        "zip4": "6231",
        "address2": null,
        "objectid": "14296",
        "longitude": "-72.8301",
        "county": "NEW HAVEN",
        "address": "2-6 Short Beach Rd"
      }
    },
    {
      "type": "Feature",
      "geometry": null,
      "properties": {
        "city": "Branford",
        "latitude": "41.2761",
        "zip5": "06405",
        "state": "CT",
        "store_name": "DOLLAR TREE 3550",
        "zip4": "3402",
        "address2": "Ste A",
        "objectid": "105509",
        "longitude": "-72.836",
        "county": "NEW HAVEN",
        "address": "869 W Main St"
      }
    },
    {
      "type": "Feature",
      "geometry": null,
      "properties": {
        "city": "Branford",
        "latitude": "41.276",
        "zip5": "06405",
        "state": "CT",
        "store_name": "Four Seasons Market",
        "zip4": "3425",
        "address2": null,
        "objectid": "95335",
        "longitude": "-72.8358",
        "county": "NEW HAVEN",
        "address": "875 W Main St"
      }
    },
    {
      "type": "Feature",
      "geometry": null,
      "properties": {
        "city": "Branford",
        "latitude": "41.2963",
        "zip5": "06405",
        "state": "CT",
        "store_name": "Haris & Ayesha Food Mart",
        "zip4": "6513",
        "address2": null,
        "objectid": "242056",
        "longitude": "-72.7651",
        "county": "NEW HAVEN",
        "address": "49 Leetes Island Rd"
      }
    },
    {
      "type": "Feature",
      "geometry": null,
      "properties": {
        "city": "Branford",
        "latitude": "41.2899",
        "zip5": "06405",
        "state": "CT",
        "store_name": "Krauszers Food Store",
        "zip4": "6011",
        "address2": null,
        "objectid": "40409",
        "longitude": "-72.8195",
        "county": "NEW HAVEN",
        "address": "170 Cedar St"
      }
    },
    {
      "type": "Feature",
      "geometry": null,
      "properties": {
        "city": "Branford",
        "latitude": "41.2962",
        "zip5": "06405",
        "state": "CT",
        "store_name": "Nippon Impex Llc N/A",
        "zip4": "2938",
        "address2": null,
        "objectid": "235455",
        "longitude": "-72.7809",
        "county": "NEW HAVEN",
        "address": "380 E Main St"
      }
    },
    {
      "type": "Feature",
      "geometry": null,
      "properties": {
        "city": "Branford",
        "latitude": "41.2973",
        "zip5": "06405",
        "state": "CT",
        "store_name": "Stop & Shop 687",
        "zip4": "6514",
        "address2": "Ste 1",
        "objectid": "58325",
        "longitude": "-72.7646",
        "county": "NEW HAVEN",
        "address": "22 Leetes Island Rd"
      }
    },
    {
      "type": "Feature",
      "geometry": null,
      "properties": {
        "city": "Branford",
        "latitude": "41.2966",
        "zip5": "06405",
        "state": "CT",
        "store_name": "TA Express New Haven 171",
        "zip4": "6508",
        "address2": "Access Road:  3 E Industrial Rd",
        "objectid": "16664",
        "longitude": "-72.7552",
        "county": "NEW HAVEN",
        "address": "I-95, Exit 56"
      }
    },
    {
      "type": "Feature",
      "geometry": null,
      "properties": {
        "city": "Branford",
        "latitude": "41.2925",
        "zip5": "06405",
        "state": "CT",
        "store_name": "Walgreens 03944",
        "zip4": "3106",
        "address2": null,
        "objectid": "130295",
        "longitude": "-72.7867",
        "county": "NEW HAVEN",
        "address": "329 E Main St"
      }
    },
    {
      "type": "Feature",
      "geometry": null,
      "properties": {
        "city": "Branford",
        "latitude": "41.2752",
        "zip5": "06405",
        "state": "CT",
        "store_name": "WALGREENS 10309",
        "zip4": "3428",
        "address2": null,
        "objectid": "106355",
        "longitude": "-72.8314",
        "county": "NEW HAVEN",
        "address": "1036 W Main St"
      }
    },
    {
      "type": "Feature",
      "geometry": null,
      "properties": {
        "city": "Branford",
        "latitude": "41.2798",
        "zip5": "06405",
        "state": "CT",
        "store_name": "Walmart  2232",
        "zip4": "2537",
        "address2": null,
        "objectid": "190914",
        "longitude": "-72.8313",
        "county": "NEW HAVEN",
        "address": "120 Commercial Pkwy"
      }
    },
    {
      "type": "Feature",
      "geometry": null,
      "properties": {
        "city": "Bridgeport",
        "latitude": "41.1821",
        "zip5": "06607",
        "state": "CT",
        "store_name": "1 Stop Groceries Llc",
        "zip4": "1205",
        "address2": null,
        "objectid": "159131",
        "longitude": "-73.1608",
        "county": "FAIRFIELD",
        "address": "938 Connecticut Ave"
      }
    },
    {
      "type": "Feature",
      "geometry": null,
      "properties": {
        "city": "Bridgeport",
        "latitude": "41.1952",
        "zip5": "06606",
        "state": "CT",
        "store_name": "Africana Market Llc",
        "zip4": "5324",
        "address2": null,
        "objectid": "247619",
        "longitude": "-73.1996",
        "county": "FAIRFIELD",
        "address": "2375 Main St"
      }
    },
    {
      "type": "Feature",
      "geometry": null,
      "properties": {
        "city": "Bridgeport",
        "latitude": "41.2008",
        "zip5": "06606",
        "state": "CT",
        "store_name": "A & H Food Store Inc",
        "zip4": "5123",
        "address2": null,
        "objectid": "30380",
        "longitude": "-73.1919",
        "county": "FAIRFIELD",
        "address": "233 North Ave"
      }
    },
    {
      "type": "Feature",
      "geometry": null,
      "properties": {
        "city": "Bridgeport",
        "latitude": "41.1573",
        "zip5": "06605",
        "state": "CT",
        "store_name": "Alba Deli Grocery",
        "zip4": "3211",
        "address2": null,
        "objectid": "243304",
        "longitude": "-73.2266",
        "county": "FAIRFIELD",
        "address": "2839 Fairfield Ave"
      }
    },
    {
      "type": "Feature",
      "geometry": null,
      "properties": {
        "city": "Bridgeport",
        "latitude": "41.1765",
        "zip5": "06604",
        "state": "CT",
        "store_name": "Alliance Farmers Market",
        "zip4": "3411",
        "address2": null,
        "objectid": "45602",
        "longitude": "-73.2003",
        "county": "FAIRFIELD",
        "address": "1151 Park Ave"
      }
    },
    {
      "type": "Feature",
      "geometry": null,
      "properties": {
        "city": "Bridgeport",
        "latitude": "41.1821",
        "zip5": "06607",
        "state": "CT",
        "store_name": "Almonte Market",
        "zip4": "1004",
        "address2": null,
        "objectid": "41610",
        "longitude": "-73.1673",
        "county": "FAIRFIELD",
        "address": "288 Bunnell St"
      }
    },
    {
      "type": "Feature",
      "geometry": null,
      "properties": {
        "city": "Bridgeport",
        "latitude": "41.172",
        "zip5": "06607",
        "state": "CT",
        "store_name": "Angeles Mini Market Llc",
        "zip4": "2205",
        "address2": null,
        "objectid": "5705",
        "longitude": "-73.1692",
        "county": "FAIRFIELD",
        "address": "239 Newfield Ave"
      }
    },
    {
      "type": "Feature",
      "geometry": null,
      "properties": {
        "city": "Bridgeport",
        "latitude": "41.1824",
        "zip5": "06604",
        "state": "CT",
        "store_name": "Azteca Market 2",
        "zip4": "2614",
        "address2": null,
        "objectid": "16778",
        "longitude": "-73.2043",
        "county": "FAIRFIELD",
        "address": "522 Pequonnock St"
      }
    },
    {
      "type": "Feature",
      "geometry": null,
      "properties": {
        "city": "Bridgeport",
        "latitude": "41.1726",
        "zip5": "06605",
        "state": "CT",
        "store_name": "Baghdad Halal Super Market",
        "zip4": "1500",
        "address2": null,
        "objectid": "242219",
        "longitude": "-73.2025",
        "county": "FAIRFIELD",
        "address": "978 State St"
      }
    },
    {
      "type": "Feature",
      "geometry": null,
      "properties": {
        "city": "Bridgeport",
        "latitude": "41.1713",
        "zip5": "06605",
        "state": "CT",
        "store_name": "Bangla Bazar",
        "zip4": "1708",
        "address2": null,
        "objectid": "240681",
        "longitude": "-73.207",
        "county": "FAIRFIELD",
        "address": "1218 State St"
      }
    },
    {
      "type": "Feature",
      "geometry": null,
      "properties": {
        "city": "Bridgeport",
        "latitude": "41.2088",
        "zip5": "06610",
        "state": "CT",
        "store_name": "Big Deli Llc",
        "zip4": "1807",
        "address2": null,
        "objectid": "197255",
        "longitude": "-73.1789",
        "county": "FAIRFIELD",
        "address": "2489 E Main St"
      }
    },
    {
      "type": "Feature",
      "geometry": null,
      "properties": {
        "city": "Bridgeport",
        "latitude": "41.163",
        "zip5": "06605",
        "state": "CT",
        "store_name": "Bird Mart",
        "zip4": "2410",
        "address2": null,
        "objectid": "129150",
        "longitude": "-73.2144",
        "county": "FAIRFIELD",
        "address": "460 Bird St"
      }
    },
    {
      "type": "Feature",
      "geometry": null,
      "properties": {
        "city": "Bridgeport",
        "latitude": "41.177",
        "zip5": "06607",
        "state": "CT",
        "store_name": "Blissful Awakening's Urban Regenerative Farm",
        "zip4": "1605",
        "address2": null,
        "objectid": "228904",
        "longitude": "-73.1681",
        "county": "FAIRFIELD",
        "address": "81 Clifford St"
      }
    },
    {
      "type": "Feature",
      "geometry": null,
      "properties": {
        "city": "Bridgeport",
        "latitude": "41.2139",
        "zip5": "06610",
        "state": "CT",
        "store_name": "Bogopa 345 Huntington Inc 43",
        "zip4": null,
        "address2": null,
        "objectid": "66086",
        "longitude": "-73.1751",
        "county": "FAIRFIELD",
        "address": "345 Huntington Turnpike"
      }
    },
    {
      "type": "Feature",
      "geometry": null,
      "properties": {
        "city": "Bridgeport",
        "latitude": "41.1924",
        "zip5": "06606",
        "state": "CT",
        "store_name": "Bom Preco Supermarket",
        "zip4": "5516",
        "address2": null,
        "objectid": "236702",
        "longitude": "-73.2049",
        "county": "FAIRFIELD",
        "address": "821 Madison Ave"
      }
    },
    {
      "type": "Feature",
      "geometry": null,
      "properties": {
        "city": "Bridgeport",
        "latitude": "41.1935",
        "zip5": "06610",
        "state": "CT",
        "store_name": "BOSTON BEEF & PROVISIONS",
        "zip4": "2610",
        "address2": null,
        "objectid": "103512",
        "longitude": "-73.1606",
        "county": "FAIRFIELD",
        "address": "1805 Boston Ave"
      }
    },
    {
      "type": "Feature",
      "geometry": null,
      "properties": {
        "city": "Bridgeport",
        "latitude": "41.1837",
        "zip5": "06604",
        "state": "CT",
        "store_name": "BRIDGEPORT LIVE POULTRY, INC.",
        "zip4": "3143",
        "address2": null,
        "objectid": "197422",
        "longitude": "-73.1975",
        "county": "FAIRFIELD",
        "address": "479 Harral Ave"
      }
    },
    {
      "type": "Feature",
      "geometry": null,
      "properties": {
        "city": "Bridgeport",
        "latitude": "41.1887",
        "zip5": "06608",
        "state": "CT",
        "store_name": "Bridgeport Mini Mart",
        "zip4": "1916",
        "address2": null,
        "objectid": "75817",
        "longitude": "-73.1807",
        "county": "FAIRFIELD",
        "address": "1025 E Main St"
      }
    },
    {
      "type": "Feature",
      "geometry": null,
      "properties": {
        "city": "Bridgeport",
        "latitude": "41.1791",
        "zip5": "06604",
        "state": "CT",
        "store_name": "Bridgeport Variety Plus",
        "zip4": "3052",
        "address2": null,
        "objectid": "180805",
        "longitude": "-73.2027",
        "county": "FAIRFIELD",
        "address": "1372 Park Ave"
      }
    },
    {
      "type": "Feature",
      "geometry": null,
      "properties": {
        "city": "Bridgeport",
        "latitude": "41.1869",
        "zip5": "06604",
        "state": "CT",
        "store_name": "Brooklawn Grocery & Deli",
        "zip4": "1528",
        "address2": null,
        "objectid": "204428",
        "longitude": "-73.2198",
        "county": "FAIRFIELD",
        "address": "652 Brooklawn Ave"
      }
    },
    {
      "type": "Feature",
      "geometry": null,
      "properties": {
        "city": "Bridgeport",
        "latitude": "41.1966",
        "zip5": "06610",
        "state": "CT",
        "store_name": "Brother's Grocery Llc",
        "zip4": "2225",
        "address2": null,
        "objectid": "233654",
        "longitude": "-73.1653",
        "county": "FAIRFIELD",
        "address": "234 Palisade Ave"
      }
    },
    {
      "type": "Feature",
      "geometry": null,
      "properties": {
        "city": "Bridgeport",
        "latitude": "41.1688",
        "zip5": "06604",
        "state": "CT",
        "store_name": "Brother's Supermarket Llc N/A",
        "zip4": "5858",
        "address2": "Ste 1",
        "objectid": "50292",
        "longitude": "-73.1939",
        "county": "FAIRFIELD",
        "address": "500 Park Ave"
      }
    },
    {
      "type": "Feature",
      "geometry": null,
      "properties": {
        "city": "Bridgeport",
        "latitude": "41.1985",
        "zip5": "06606",
        "state": "CT",
        "store_name": "Capitol Exxon LLC",
        "zip4": "5451",
        "address2": null,
        "objectid": "11604",
        "longitude": "-73.1965",
        "county": "FAIRFIELD",
        "address": "565 Lindley St"
      }
    },
    {
      "type": "Feature",
      "geometry": null,
      "properties": {
        "city": "Bridgeport",
        "latitude": "41.169",
        "zip5": "06604",
        "state": "CT",
        "store_name": "CAPTAIN'S FOOD MART",
        "zip4": "5522",
        "address2": null,
        "objectid": "205499",
        "longitude": "-73.1865",
        "county": "FAIRFIELD",
        "address": "321 Main St"
      }
    },
    {
      "type": "Feature",
      "geometry": null,
      "properties": {
        "city": "Bridgeport",
        "latitude": "41.2113",
        "zip5": "06610",
        "state": "CT",
        "store_name": "Chaves Bakery & Deli",
        "zip4": "1422",
        "address2": null,
        "objectid": "249161",
        "longitude": "-73.179",
        "county": "FAIRFIELD",
        "address": "2660 E Main St"
      }
    },
    {
      "type": "Feature",
      "geometry": null,
      "properties": {
        "city": "Bridgeport",
        "latitude": "41.193",
        "zip5": "06606",
        "state": "CT",
        "store_name": "Chaves Bakery III",
        "zip4": "5506",
        "address2": null,
        "objectid": "219918",
        "longitude": "-73.2051",
        "county": "FAIRFIELD",
        "address": "865 Madison Ave"
      }
    },
    {
      "type": "Feature",
      "geometry": null,
      "properties": {
        "city": "Bridgeport",
        "latitude": "41.1949",
        "zip5": "06606",
        "state": "CT",
        "store_name": "Collado's Grocery",
        "zip4": "5324",
        "address2": null,
        "objectid": "41514",
        "longitude": "-73.1995",
        "county": "FAIRFIELD",
        "address": "2351 Main St"
      }
    },
    {
      "type": "Feature",
      "geometry": null,
      "properties": {
        "city": "Bridgeport",
        "latitude": "41.1891",
        "zip5": "06608",
        "state": "CT",
        "store_name": "COMPARE FOOD SUPERMARKET",
        "zip4": "1915",
        "address2": null,
        "objectid": "58704",
        "longitude": "-73.1806",
        "county": "FAIRFIELD",
        "address": "1050 E Main St"
      }
    },
    {
      "type": "Feature",
      "geometry": null,
      "properties": {
        "city": "Bridgeport",
        "latitude": "41.202",
        "zip5": "06606",
        "state": "CT",
        "store_name": "Corner Varietystore",
        "zip4": "4649",
        "address2": null,
        "objectid": "45169",
        "longitude": "-73.2092",
        "county": "FAIRFIELD",
        "address": "343 Wayne St"
      }
    },
    {
      "type": "Feature",
      "geometry": null,
      "properties": {
        "city": "Bridgeport",
        "latitude": "41.1913",
        "zip5": "06604",
        "state": "CT",
        "store_name": "Creole Ingredient Llc",
        "zip4": "2721",
        "address2": null,
        "objectid": "248033",
        "longitude": "-73.1969",
        "county": "FAIRFIELD",
        "address": "2051 Main St"
      }
    },
    {
      "type": "Feature",
      "geometry": null,
      "properties": {
        "city": "Bridgeport",
        "latitude": "41.1693",
        "zip5": "06605",
        "state": "CT",
        "store_name": "Ct Gas & Mini Mart Llc",
        "zip4": "2144",
        "address2": null,
        "objectid": "32111",
        "longitude": "-73.2145",
        "county": "FAIRFIELD",
        "address": "1726 Fairfield Ave"
      }
    },
    {
      "type": "Feature",
      "geometry": null,
      "properties": {
        "city": "Bridgeport",
        "latitude": "41.2101",
        "zip5": "06610",
        "state": "CT",
        "store_name": "Cumberland Farms 4731",
        "zip4": "1810",
        "address2": null,
        "objectid": "131100",
        "longitude": "-73.179",
        "county": "FAIRFIELD",
        "address": "2525 E Main St"
      }
    },
    {
      "type": "Feature",
      "geometry": null,
      "properties": {
        "city": "Bridgeport",
        "latitude": "41.2103",
        "zip5": "06610",
        "state": "CT",
        "store_name": "CVS PHARMACY  1139",
        "zip4": "1422",
        "address2": null,
        "objectid": "32854",
        "longitude": "-73.1789",
        "county": "FAIRFIELD",
        "address": "2610 E Main St"
      }
    },
    {
      "type": "Feature",
      "geometry": null,
      "properties": {
        "city": "Bridgeport",
        "latitude": "41.1933",
        "zip5": "06610",
        "state": "CT",
        "store_name": "CVS PHARMACY  1153",
        "zip4": "2623",
        "address2": null,
        "objectid": "13634",
        "longitude": "-73.1594",
        "county": "FAIRFIELD",
        "address": "1875 Boston Ave"
      }
    },
    {
      "type": "Feature",
      "geometry": null,
      "properties": {
        "city": "Bridgeport",
        "latitude": "41.2118",
        "zip5": "06606",
        "state": "CT",
        "store_name": "CVS PHARMACY  2143",
        "zip4": "3613",
        "address2": null,
        "objectid": "124403",
        "longitude": "-73.2101",
        "county": "FAIRFIELD",
        "address": "3710 Main St"
      }
    },
    {
      "type": "Feature",
      "geometry": null,
      "properties": {
        "city": "Bridgeport",
        "latitude": "41.1716",
        "zip5": "06605",
        "state": "CT",
        "store_name": "De Castillo Grocery LLC",
        "zip4": "1506",
        "address2": null,
        "objectid": "52974",
        "longitude": "-73.2058",
        "county": "FAIRFIELD",
        "address": "1160 State St"
      }
    },
    {
      "type": "Feature",
      "geometry": null,
      "properties": {
        "city": "Bridgeport",
        "latitude": "41.189",
        "zip5": "06608",
        "state": "CT",
        "store_name": "Deli And Grocery Mini Market",
        "zip4": "2010",
        "address2": null,
        "objectid": "193271",
        "longitude": "-73.1755",
        "county": "FAIRFIELD",
        "address": "743 Arctic St"
      }
    },
    {
      "type": "Feature",
      "geometry": null,
      "properties": {
        "city": "Bridgeport",
        "latitude": "41.1775",
        "zip5": "06604",
        "state": "CT",
        "store_name": "Deli Grocery, Llc",
        "zip4": "3413",
        "address2": null,
        "objectid": "138928",
        "longitude": "-73.201",
        "county": "FAIRFIELD",
        "address": "1212 Park Ave"
      }
    },
    {
      "type": "Feature",
      "geometry": null,
      "properties": {
        "city": "Bridgeport",
        "latitude": "41.2074",
        "zip5": "06610",
        "state": "CT",
        "store_name": "Dhaka Mart Llc",
        "zip4": "1803",
        "address2": null,
        "objectid": "84814",
        "longitude": "-73.1787",
        "county": "FAIRFIELD",
        "address": "2394 E Main St"
      }
    },
    {
      "type": "Feature",
      "geometry": null,
      "properties": {
        "city": "Bridgeport",
        "latitude": "41.1713",
        "zip5": "06605",
        "state": "CT",
        "store_name": "Dino's Market",
        "zip4": "1708",
        "address2": null,
        "objectid": "68810",
        "longitude": "-73.2067",
        "county": "FAIRFIELD",
        "address": "1226 State St"
      }
    },
    {
      "type": "Feature",
      "geometry": null,
      "properties": {
        "city": "Bridgeport",
        "latitude": "41.1763",
        "zip5": "06604",
        "state": "CT",
        "store_name": "Dollar General 15076",
        "zip4": "3904",
        "address2": null,
        "objectid": "62932",
        "longitude": "-73.1962",
        "county": "FAIRFIELD",
        "address": "557 Fairfield Ave"
      }
    },
    {
      "type": "Feature",
      "geometry": null,
      "properties": {
        "city": "Bridgeport",
        "latitude": "41.2139",
        "zip5": "06610",
        "state": "CT",
        "store_name": "Dollar Tree 4323",
        "zip4": "1465",
        "address2": null,
        "objectid": "156534",
        "longitude": "-73.1751",
        "county": "FAIRFIELD",
        "address": "345 Huntington Tpke"
      }
    },
    {
      "type": "Feature",
      "geometry": null,
      "properties": {
        "city": "Bridgeport",
        "latitude": "41.1825",
        "zip5": "06604",
        "state": "CT",
        "store_name": "Dollar Tree 5245",
        "zip4": "2614",
        "address2": null,
        "objectid": "36967",
        "longitude": "-73.2054",
        "county": "FAIRFIELD",
        "address": "570 Pequonnock St"
      }
    },
    {
      "type": "Feature",
      "geometry": null,
      "properties": {
        "city": "Bridgeport",
        "latitude": "41.1773",
        "zip5": "06604",
        "state": "CT",
        "store_name": "Downtown Bridgeport Farmer's Market",
        "zip4": null,
        "address2": "McLevy Green",
        "objectid": "156865",
        "longitude": "-73.1891",
        "county": "FAIRFIELD",
        "address": "102 Bank St"
      }
    },
    {
      "type": "Feature",
      "geometry": null,
      "properties": {
        "city": "Bridgeport",
        "latitude": "41.1756",
        "zip5": "06605",
        "state": "CT",
        "store_name": "D.r. Market Retail Centre",
        "zip4": "1603",
        "address2": null,
        "objectid": "236729",
        "longitude": "-73.2134",
        "county": "FAIRFIELD",
        "address": "730 Maplewood Ave"
      }
    },
    {
      "type": "Feature",
      "geometry": null,
      "properties": {
        "city": "Bridgeport",
        "latitude": "41.185",
        "zip5": "06608",
        "state": "CT",
        "store_name": "East Side Farmers Market",
        "zip4": "2335",
        "address2": null,
        "objectid": "229991",
        "longitude": "-73.1808",
        "county": "FAIRFIELD",
        "address": "752 E Main St"
      }
    },
    {
      "type": "Feature",
      "geometry": null,
      "properties": {
        "city": "Bridgeport",
        "latitude": "41.1866",
        "zip5": "06610",
        "state": "CT",
        "store_name": "Eddie's Market 01",
        "zip4": "2809",
        "address2": null,
        "objectid": "91574",
        "longitude": "-73.1654",
        "county": "FAIRFIELD",
        "address": "2 Mill Hill Ave"
      }
    },
    {
      "type": "Feature",
      "geometry": null,
      "properties": {
        "city": "Bridgeport",
        "latitude": "41.2069",
        "zip5": "06606",
        "state": "CT",
        "store_name": "Edip Variety and Deli LLC",
        "zip4": "4308",
        "address2": null,
        "objectid": "126022",
        "longitude": "-73.2057",
        "county": "FAIRFIELD",
        "address": "124 Beechmont Ave"
      }
    },
    {
      "type": "Feature",
      "geometry": null,
      "properties": {
        "city": "Bridgeport",
        "latitude": "41.1788",
        "zip5": "06607",
        "state": "CT",
        "store_name": "Ela Discounts LLC",
        "zip4": "1417",
        "address2": null,
        "objectid": "38052",
        "longitude": "-73.1645",
        "county": "FAIRFIELD",
        "address": "1321 Stratford Ave"
      }
    },
    {
      "type": "Feature",
      "geometry": null,
      "properties": {
        "city": "Bridgeport",
        "latitude": "41.1958",
        "zip5": "06606",
        "state": "CT",
        "store_name": "El Dorado Meat Market Llc",
        "zip4": "5323",
        "address2": null,
        "objectid": "29164",
        "longitude": "-73.1997",
        "county": "FAIRFIELD",
        "address": "2428 Main St"
      }
    },
    {
      "type": "Feature",
      "geometry": null,
      "properties": {
        "city": "Bridgeport",
        "latitude": "41.2164",
        "zip5": "06606",
        "state": "CT",
        "store_name": "El Mercadito Llc 1",
        "zip4": "2399",
        "address2": null,
        "objectid": "229733",
        "longitude": "-73.2134",
        "county": "FAIRFIELD",
        "address": "4090 Main St"
      }
    },
    {
      "type": "Feature",
      "geometry": null,
      "properties": {
        "city": "Bridgeport",
        "latitude": "41.1985",
        "zip5": "06610",
        "state": "CT",
        "store_name": "Extra Fuel Mart",
        "zip4": "1705",
        "address2": null,
        "objectid": "10438",
        "longitude": "-73.1813",
        "county": "FAIRFIELD",
        "address": "540 Boston Ave"
      }
    },
    {
      "type": "Feature",
      "geometry": null,
      "properties": {
        "city": "Bridgeport",
        "latitude": "41.1638",
        "zip5": "06605",
        "state": "CT",
        "store_name": "FAIRFIELD MARKET",
        "zip4": "2644",
        "address2": null,
        "objectid": "58657",
        "longitude": "-73.2205",
        "county": "FAIRFIELD",
        "address": "2268 Fairfield Ave"
      }
    },
    {
      "type": "Feature",
      "geometry": null,
      "properties": {
        "city": "Bridgeport",
        "latitude": "41.1714",
        "zip5": "06605",
        "state": "CT",
        "store_name": "Family Dollar Store 10111",
        "zip4": "1507",
        "address2": null,
        "objectid": "53203",
        "longitude": "-73.2059",
        "county": "FAIRFIELD",
        "address": "1175 State St"
      }
    },
    {
      "type": "Feature",
      "geometry": null,
      "properties": {
        "city": "Bridgeport",
        "latitude": "41.1888",
        "zip5": "06604",
        "state": "CT",
        "store_name": "Family Market",
        "zip4": "1622",
        "address2": null,
        "objectid": "5716",
        "longitude": "-73.2169",
        "county": "FAIRFIELD",
        "address": "1587 Capitol Ave"
      }
    },
    {
      "type": "Feature",
      "geometry": null,
      "properties": {
        "city": "Bridgeport",
        "latitude": "41.1559",
        "zip5": "06605",
        "state": "CT",
        "store_name": "Farmers' Market Of Black Rock",
        "zip4": "3498",
        "address2": null,
        "objectid": "36788",
        "longitude": "-73.2253",
        "county": "FAIRFIELD",
        "address": "481 Brewster St"
      }
    },
    {
      "type": "Feature",
      "geometry": null,
      "properties": {
        "city": "Bridgeport",
        "latitude": "41.1892",
        "zip5": "06610",
        "state": "CT",
        "store_name": "Farm Stand At Bridgeport Hospital",
        "zip4": "2811",
        "address2": null,
        "objectid": "229742",
        "longitude": "-73.1644",
        "county": "FAIRFIELD",
        "address": "200 Mill Hill Ave"
      }
    },
    {
      "type": "Feature",
      "geometry": null,
      "properties": {
        "city": "Bridgeport",
        "latitude": "41.1879",
        "zip5": "06604",
        "state": "CT",
        "store_name": "Feed Mobile Marketplace",
        "zip4": "1531",
        "address2": null,
        "objectid": "71317",
        "longitude": "-73.2197",
        "county": "FAIRFIELD",
        "address": "1718 Capitol Ave"
      }
    },
    {
      "type": "Feature",
      "geometry": null,
      "properties": {
        "city": "Bridgeport",
        "latitude": "41.1937",
        "zip5": "06606",
        "state": "CT",
        "store_name": "Fine Fare Supermarket",
        "zip4": "5314",
        "address2": null,
        "objectid": "112224",
        "longitude": "-73.1984",
        "county": "FAIRFIELD",
        "address": "2251 Main St"
      }
    },
    {
      "type": "Feature",
      "geometry": null,
      "properties": {
        "city": "Bridgeport",
        "latitude": "41.2097",
        "zip5": "06606",
        "state": "CT",
        "store_name": "Food Bazaar 36",
        "zip4": "3017",
        "address2": null,
        "objectid": "71651",
        "longitude": "-73.1894",
        "county": "FAIRFIELD",
        "address": "500 Sylvan Ave"
      }
    },
    {
      "type": "Feature",
      "geometry": null,
      "properties": {
        "city": "Bridgeport",
        "latitude": "41.1926",
        "zip5": "06606",
        "state": "CT",
        "store_name": "Fresh Market Llc",
        "zip4": "5708",
        "address2": null,
        "objectid": "147992",
        "longitude": "-73.1966",
        "county": "FAIRFIELD",
        "address": "866 North Ave"
      }
    },
    {
      "type": "Feature",
      "geometry": null,
      "properties": {
        "city": "Bridgeport",
        "latitude": "41.1723",
        "zip5": "06605",
        "state": "CT",
        "store_name": "Gala Foods Supermarket",
        "zip4": "1932",
        "address2": null,
        "objectid": "65087",
        "longitude": "-73.211",
        "county": "FAIRFIELD",
        "address": "1457 Fairfield Ave"
      }
    },
    {
      "type": "Feature",
      "geometry": null,
      "properties": {
        "city": "Bridgeport",
        "latitude": "41.1892",
        "zip5": "06610",
        "state": "CT",
        "store_name": "Gas Station/small Shop 1",
        "zip4": "3211",
        "address2": null,
        "objectid": "48990",
        "longitude": "-73.1574",
        "county": "FAIRFIELD",
        "address": "1789 Barnum Ave"
      }
    },
    {
      "type": "Feature",
      "geometry": null,
      "properties": {
        "city": "Bridgeport",
        "latitude": "41.1776",
        "zip5": "06604",
        "state": "CT",
        "store_name": "Getty Gas",
        "zip4": "3411",
        "address2": null,
        "objectid": "126910",
        "longitude": "-73.2011",
        "county": "FAIRFIELD",
        "address": "1235 Park Ave"
      }
    },
    {
      "type": "Feature",
      "geometry": null,
      "properties": {
        "city": "Bridgeport",
        "latitude": "41.1725",
        "zip5": "06605",
        "state": "CT",
        "store_name": "Gomez Convenience Store",
        "zip4": "1928",
        "address2": null,
        "objectid": "207102",
        "longitude": "-73.2106",
        "county": "FAIRFIELD",
        "address": "1437 Fairfield Ave"
      }
    },
    {
      "type": "Feature",
      "geometry": null,
      "properties": {
        "city": "Bridgeport",
        "latitude": "41.1955",
        "zip5": "06606",
        "state": "CT",
        "store_name": "Gv Brasil Meat Market",
        "zip4": "5339",
        "address2": null,
        "objectid": "113809",
        "longitude": "-73.1994",
        "county": "FAIRFIELD",
        "address": "2380 Main St"
      }
    },
    {
      "type": "Feature",
      "geometry": null,
      "properties": {
        "city": "Bridgeport",
        "latitude": "41.1966",
        "zip5": "06606",
        "state": "CT",
        "store_name": "Happys Deli Market",
        "zip4": "5325",
        "address2": null,
        "objectid": "238767",
        "longitude": "-73.2003",
        "county": "FAIRFIELD",
        "address": "2487 Main St"
      }
    },
    {
      "type": "Feature",
      "geometry": null,
      "properties": {
        "city": "Bridgeport",
        "latitude": "41.1809",
        "zip5": "06604",
        "state": "CT",
        "store_name": "Hidalgo Market",
        "zip4": "3520",
        "address2": null,
        "objectid": "53860",
        "longitude": "-73.1981",
        "county": "FAIRFIELD",
        "address": "175 Pequonnock St"
      }
    },
    {
      "type": "Feature",
      "geometry": null,
      "properties": {
        "city": "Bridgeport",
        "latitude": "41.1942",
        "zip5": "06606",
        "state": "CT",
        "store_name": "International Farmers Market",
        "zip4": "5321",
        "address2": null,
        "objectid": "29588",
        "longitude": "-73.1986",
        "county": "FAIRFIELD",
        "address": "2298 Main St"
      }
    },
    {
      "type": "Feature",
      "geometry": null,
      "properties": {
        "city": "Bridgeport",
        "latitude": "41.1941",
        "zip5": "06606",
        "state": "CT",
        "store_name": "International Fish Market",
        "zip4": null,
        "address2": null,
        "objectid": "92647",
        "longitude": "-73.1985",
        "county": "FAIRFIELD",
        "address": "2298A Main St"
      }
    },
    {
      "type": "Feature",
      "geometry": null,
      "properties": {
        "city": "Bridgeport",
        "latitude": "41.1774",
        "zip5": "06605",
        "state": "CT",
        "store_name": "J & H Grocery Store Llc",
        "zip4": "1052",
        "address2": null,
        "objectid": "19564",
        "longitude": "-73.2036",
        "county": "FAIRFIELD",
        "address": "129 Wood Ave"
      }
    },
    {
      "type": "Feature",
      "geometry": null,
      "properties": {
        "city": "Bridgeport",
        "latitude": "41.1991",
        "zip5": "06610",
        "state": "CT",
        "store_name": "Jimenez Grocery",
        "zip4": "2001",
        "address2": null,
        "objectid": "246280",
        "longitude": "-73.1807",
        "county": "FAIRFIELD",
        "address": "1779 E Main St"
      }
    },
    {
      "type": "Feature",
      "geometry": null,
      "properties": {
        "city": "Bridgeport",
        "latitude": "41.1978",
        "zip5": "06610",
        "state": "CT",
        "store_name": "Jp Grocery & Deli",
        "zip4": "3402",
        "address2": null,
        "objectid": "108532",
        "longitude": "-73.1649",
        "county": "FAIRFIELD",
        "address": "320 Palisade Ave"
      }
    },
    {
      "type": "Feature",
      "geometry": null,
      "properties": {
        "city": "Bridgeport",
        "latitude": "41.1846",
        "zip5": "06608",
        "state": "CT",
        "store_name": "Julio R Market Llc",
        "zip4": "2334",
        "address2": null,
        "objectid": "171559",
        "longitude": "-73.181",
        "county": "FAIRFIELD",
        "address": "727 E Main St"
      }
    },
    {
      "type": "Feature",
      "geometry": null,
      "properties": {
        "city": "Bridgeport",
        "latitude": "41.1824",
        "zip5": "06604",
        "state": "CT",
        "store_name": "Junco 09",
        "zip4": "3147",
        "address2": null,
        "objectid": "104828",
        "longitude": "-73.198",
        "county": "FAIRFIELD",
        "address": "373 Harral Ave"
      }
    },
    {
      "type": "Feature",
      "geometry": null,
      "properties": {
        "city": "Bridgeport",
        "latitude": "41.1939",
        "zip5": "06608",
        "state": "CT",
        "store_name": "Junco4 Castellanos Llc",
        "zip4": "1020",
        "address2": null,
        "objectid": "210380",
        "longitude": "-73.1839",
        "county": "FAIRFIELD",
        "address": "891 Noble Ave"
      }
    },
    {
      "type": "Feature",
      "geometry": null,
      "properties": {
        "city": "Bridgeport",
        "latitude": "41.191",
        "zip5": "06608",
        "state": "CT",
        "store_name": "Junco6 Market",
        "zip4": null,
        "address2": null,
        "objectid": "54660",
        "longitude": "-73.1755",
        "county": "FAIRFIELD",
        "address": "701 Hallett St"
      }
    },
    {
      "type": "Feature",
      "geometry": null,
      "properties": {
        "city": "Bridgeport",
        "latitude": "41.1892",
        "zip5": "06608",
        "state": "CT",
        "store_name": "Junco 7 Mini Market",
        "zip4": "2019",
        "address2": null,
        "objectid": "92545",
        "longitude": "-73.1775",
        "county": "FAIRFIELD",
        "address": "1100 Pembroke St"
      }
    },
    {
      "type": "Feature",
      "geometry": null,
      "properties": {
        "city": "Bridgeport",
        "latitude": "41.1844",
        "zip5": "06604",
        "state": "CT",
        "store_name": "Junco & Daughter Market",
        "zip4": "3107",
        "address2": null,
        "objectid": "56385",
        "longitude": "-73.1972",
        "county": "FAIRFIELD",
        "address": "533 Harral Ave"
      }
    },
    {
      "type": "Feature",
      "geometry": null,
      "properties": {
        "city": "Bridgeport",
        "latitude": "41.1794",
        "zip5": "06607",
        "state": "CT",
        "store_name": "Junco Grocery Deli Llc",
        "zip4": "1419",
        "address2": null,
        "objectid": "25945",
        "longitude": "-73.1629",
        "county": "FAIRFIELD",
        "address": "1427 Stratford Ave"
      }
    },
    {
      "type": "Feature",
      "geometry": null,
      "properties": {
        "city": "Bridgeport",
        "latitude": "41.1927",
        "zip5": "06608",
        "state": "CT",
        "store_name": "Junco & Son Meat Market LLC",
        "zip4": "1527",
        "address2": null,
        "objectid": "41841",
        "longitude": "-73.1853",
        "county": "FAIRFIELD",
        "address": "616 William St"
      }
    },
    {
      "type": "Feature",
      "geometry": null,
      "properties": {
        "city": "Bridgeport",
        "latitude": "41.1831",
        "zip5": "06604",
        "state": "CT",
        "store_name": "Junco Supermarket Ii, Llc",
        "zip4": "3504",
        "address2": null,
        "objectid": "215885",
        "longitude": "-73.1948",
        "county": "FAIRFIELD",
        "address": "27 Highland Ave"
      }
    },
    {
      "type": "Feature",
      "geometry": null,
      "properties": {
        "city": "Bridgeport",
        "latitude": "41.1738",
        "zip5": "06605",
        "state": "CT",
        "store_name": "K & H FOOD STOP",
        "zip4": "1712",
        "address2": null,
        "objectid": "228117",
        "longitude": "-73.2088",
        "county": "FAIRFIELD",
        "address": "1309 Fairfield Ave"
      }
    },
    {
      "type": "Feature",
      "geometry": null,
      "properties": {
        "city": "Bridgeport",
        "latitude": "41.1969",
        "zip5": "06606",
        "state": "CT",
        "store_name": "Ki Brasil",
        "zip4": "4628",
        "address2": null,
        "objectid": "34264",
        "longitude": "-73.2076",
        "county": "FAIRFIELD",
        "address": "1173 Madison Ave"
      }
    },
    {
      "type": "Feature",
      "geometry": null,
      "properties": {
        "city": "Bridgeport",
        "latitude": "41.1603",
        "zip5": "06605",
        "state": "CT",
        "store_name": "Krauszers Food",
        "zip4": "3038",
        "address2": null,
        "objectid": "17909",
        "longitude": "-73.2237",
        "county": "FAIRFIELD",
        "address": "2579 Fairfield Ave"
      }
    },
    {
      "type": "Feature",
      "geometry": null,
      "properties": {
        "city": "Bridgeport",
        "latitude": "41.1829",
        "zip5": "06604",
        "state": "CT",
        "store_name": "La Parada Ct Llc",
        "zip4": "2234",
        "address2": null,
        "objectid": "221310",
        "longitude": "-73.2094",
        "county": "FAIRFIELD",
        "address": "1132 Norman St"
      }
    },
    {
      "type": "Feature",
      "geometry": null,
      "properties": {
        "city": "Bridgeport",
        "latitude": "41.1985",
        "zip5": "06606",
        "state": "CT",
        "store_name": "La Placita Latina Meat & Deli LLC",
        "zip4": "5305",
        "address2": null,
        "objectid": "31847",
        "longitude": "-73.2015",
        "county": "FAIRFIELD",
        "address": "2634 Main St"
      }
    },
    {
      "type": "Feature",
      "geometry": null,
      "properties": {
        "city": "Bridgeport",
        "latitude": "41.1926",
        "zip5": "06610",
        "state": "CT",
        "store_name": "Lasowiak Deli",
        "zip4": "3030",
        "address2": null,
        "objectid": "103167",
        "longitude": "-73.1543",
        "county": "FAIRFIELD",
        "address": "2171 Boston Ave"
      }
    },
    {
      "type": "Feature",
      "geometry": null,
      "properties": {
        "city": "Bridgeport",
        "latitude": "41.1909",
        "zip5": "06604",
        "state": "CT",
        "store_name": "Lias Market Llc",
        "zip4": "2720",
        "address2": null,
        "objectid": "27335",
        "longitude": "-73.1965",
        "county": "FAIRFIELD",
        "address": "2032 Main St"
      }
    },
    {
      "type": "Feature",
      "geometry": null,
      "properties": {
        "city": "Bridgeport",
        "latitude": "41.1926",
        "zip5": "06606",
        "state": "CT",
        "store_name": "Los Basilio Mini Market Llc",
        "zip4": "5513",
        "address2": null,
        "objectid": "114841",
        "longitude": "-73.2046",
        "county": "FAIRFIELD",
        "address": "822 Madison Ave"
      }
    },
    {
      "type": "Feature",
      "geometry": null,
      "properties": {
        "city": "Bridgeport",
        "latitude": "41.1922",
        "zip5": "06608",
        "state": "CT",
        "store_name": "Los Muchachos Grocery Store Llc",
        "zip4": "1744",
        "address2": null,
        "objectid": "213942",
        "longitude": "-73.1771",
        "county": "FAIRFIELD",
        "address": "1325 Pembroke St"
      }
    },
    {
      "type": "Feature",
      "geometry": null,
      "properties": {
        "city": "Bridgeport",
        "latitude": "41.1981",
        "zip5": "06608",
        "state": "CT",
        "store_name": "Los Primos Grocery Store",
        "zip4": "1030",
        "address2": null,
        "objectid": "172820",
        "longitude": "-73.1854",
        "county": "FAIRFIELD",
        "address": "64 Roosevelt St"
      }
    },
    {
      "type": "Feature",
      "geometry": null,
      "properties": {
        "city": "Bridgeport",
        "latitude": "41.174",
        "zip5": "06604",
        "state": "CT",
        "store_name": "Maham Service Station Inc",
        "zip4": "3917",
        "address2": null,
        "objectid": "243862",
        "longitude": "-73.198",
        "county": "FAIRFIELD",
        "address": "927 Park Ave"
      }
    },
    {
      "type": "Feature",
      "geometry": null,
      "properties": {
        "city": "Bridgeport",
        "latitude": "41.1918",
        "zip5": "06608",
        "state": "CT",
        "store_name": "Mambo Grocery",
        "zip4": "1502",
        "address2": null,
        "objectid": "66479",
        "longitude": "-73.1841",
        "county": "FAIRFIELD",
        "address": "731 Noble Ave"
      }
    },
    {
      "type": "Feature",
      "geometry": null,
      "properties": {
        "city": "Bridgeport",
        "latitude": "41.1789",
        "zip5": "06604",
        "state": "CT",
        "store_name": "M And S Grocery And Deli",
        "zip4": "3050",
        "address2": null,
        "objectid": "19168",
        "longitude": "-73.2026",
        "county": "FAIRFIELD",
        "address": "1359 Park Ave"
      }
    },
    {
      "type": "Feature",
      "geometry": null,
      "properties": {
        "city": "Bridgeport",
        "latitude": "41.1577",
        "zip5": "06605",
        "state": "CT",
        "store_name": "Mikes Deli Market",
        "zip4": "3047",
        "address2": null,
        "objectid": "211733",
        "longitude": "-73.2263",
        "county": "FAIRFIELD",
        "address": "2808 Fairfield Ave"
      }
    },
    {
      "type": "Feature",
      "geometry": null,
      "properties": {
        "city": "Bridgeport",
        "latitude": "41.1949",
        "zip5": "06608",
        "state": "CT",
        "store_name": "Mini Special Market",
        "zip4": "1203",
        "address2": null,
        "objectid": "23908",
        "longitude": "-73.178",
        "county": "FAIRFIELD",
        "address": "254 Orchard St"
      }
    },
    {
      "type": "Feature",
      "geometry": null,
      "properties": {
        "city": "Bridgeport",
        "latitude": "41.1791",
        "zip5": "06607",
        "state": "CT",
        "store_name": "MLC MARKET",
        "zip4": "1419",
        "address2": null,
        "objectid": "13697",
        "longitude": "-73.1637",
        "county": "FAIRFIELD",
        "address": "1377 Stratford Ave"
      }
    },
    {
      "type": "Feature",
      "geometry": null,
      "properties": {
        "city": "Bridgeport",
        "latitude": "41.1782",
        "zip5": "06605",
        "state": "CT",
        "store_name": "Mo Mini Mart L.l.c",
        "zip4": "1433",
        "address2": null,
        "objectid": "30030",
        "longitude": "-73.2076",
        "county": "FAIRFIELD",
        "address": "378 Wood Ave"
      }
    },
    {
      "type": "Feature",
      "geometry": null,
      "properties": {
        "city": "Bridgeport",
        "latitude": "41.1888",
        "zip5": "06604",
        "state": "CT",
        "store_name": "North Ave Grocery & Deli",
        "zip4": "2713",
        "address2": null,
        "objectid": "74981",
        "longitude": "-73.1999",
        "county": "FAIRFIELD",
        "address": "1193 North Ave"
      }
    },
    {
      "type": "Feature",
      "geometry": null,
      "properties": {
        "city": "Bridgeport",
        "latitude": "41.1809",
        "zip5": "06604",
        "state": "CT",
        "store_name": "ORIENTAL SUPERMARKET",
        "zip4": "3014",
        "address2": null,
        "objectid": "71725",
        "longitude": "-73.201",
        "county": "FAIRFIELD",
        "address": "320 Coleman St"
      }
    },
    {
      "type": "Feature",
      "geometry": null,
      "properties": {
        "city": "Bridgeport",
        "latitude": "41.196",
        "zip5": "06606",
        "state": "CT",
        "store_name": "PACI'S MARKET",
        "zip4": "5723",
        "address2": null,
        "objectid": "206282",
        "longitude": "-73.1921",
        "county": "FAIRFIELD",
        "address": "255 Lindley St"
      }
    },
    {
      "type": "Feature",
      "geometry": null,
      "properties": {
        "city": "Bridgeport",
        "latitude": "41.1985",
        "zip5": "06606",
        "state": "CT",
        "store_name": "PAM'S VARIETY STORE",
        "zip4": "4571",
        "address2": null,
        "objectid": "14085",
        "longitude": "-73.2102",
        "county": "FAIRFIELD",
        "address": "1375 Madison Ave"
      }
    },
    {
      "type": "Feature",
      "geometry": null,
      "properties": {
        "city": "Bridgeport",
        "latitude": "41.189",
        "zip5": "06608",
        "state": "CT",
        "store_name": "Papi's Store 2",
        "zip4": "1834",
        "address2": null,
        "objectid": "70098",
        "longitude": "-73.186",
        "county": "FAIRFIELD",
        "address": "337 William St"
      }
    },
    {
      "type": "Feature",
      "geometry": null,
      "properties": {
        "city": "Bridgeport",
        "latitude": "41.1676",
        "zip5": "06604",
        "state": "CT",
        "store_name": "Park Avenue Supermarket",
        "zip4": "5449",
        "address2": null,
        "objectid": "100850",
        "longitude": "-73.1931",
        "county": "FAIRFIELD",
        "address": "375 Park Ave"
      }
    },
    {
      "type": "Feature",
      "geometry": null,
      "properties": {
        "city": "Bridgeport",
        "latitude": "41.1662",
        "zip5": "06604",
        "state": "CT",
        "store_name": "Pb's Deli & Convenience 2032123733",
        "zip4": "5351",
        "address2": null,
        "objectid": "248648",
        "longitude": "-73.197",
        "county": "FAIRFIELD",
        "address": "204 Walnut St"
      }
    },
    {
      "type": "Feature",
      "geometry": null,
      "properties": {
        "city": "Bridgeport",
        "latitude": "41.1822",
        "zip5": "06608",
        "state": "CT",
        "store_name": "Pembroke Variety Inc",
        "zip4": "2608",
        "address2": null,
        "objectid": "213574",
        "longitude": "-73.1788",
        "county": "FAIRFIELD",
        "address": "582 Pembroke St"
      }
    },
    {
      "type": "Feature",
      "geometry": null,
      "properties": {
        "city": "Bridgeport",
        "latitude": "41.1806",
        "zip5": "06607",
        "state": "CT",
        "store_name": "Perez Deli & Grocery Llc",
        "zip4": "1514",
        "address2": null,
        "objectid": "91950",
        "longitude": "-73.159",
        "county": "FAIRFIELD",
        "address": "1650 Stratford Ave"
      }
    },
    {
      "type": "Feature",
      "geometry": null,
      "properties": {
        "city": "Bridgeport",
        "latitude": "41.2018",
        "zip5": "06610",
        "state": "CT",
        "store_name": "PRICERITE of Bridgeport 346",
        "zip4": "1604",
        "address2": null,
        "objectid": "117483",
        "longitude": "-73.1865",
        "county": "FAIRFIELD",
        "address": "164 Boston Ave"
      }
    },
    {
      "type": "Feature",
      "geometry": null,
      "properties": {
        "city": "Bridgeport",
        "latitude": "41.22",
        "zip5": "06606",
        "state": "CT",
        "store_name": "PriceRite of Main Street 349",
        "zip4": "1837",
        "address2": null,
        "objectid": "151953",
        "longitude": "-73.2168",
        "county": "FAIRFIELD",
        "address": "4425 Main St"
      }
    },
    {
      "type": "Feature",
      "geometry": null,
      "properties": {
        "city": "Bridgeport",
        "latitude": "41.18",
        "zip5": "06608",
        "state": "CT",
        "store_name": "Pueblo Supermarket",
        "zip4": "2603",
        "address2": null,
        "objectid": "30700",
        "longitude": "-73.1791",
        "county": "FAIRFIELD",
        "address": "420 Pembroke St"
      }
    },
    {
      "type": "Feature",
      "geometry": null,
      "properties": {
        "city": "Bridgeport",
        "latitude": "41.1801",
        "zip5": "06605",
        "state": "CT",
        "store_name": "Pursat Supermarket",
        "zip4": "1036",
        "address2": null,
        "objectid": "134304",
        "longitude": "-73.2061",
        "county": "FAIRFIELD",
        "address": "215 Maplewood Ave"
      }
    },
    {
      "type": "Feature",
      "geometry": null,
      "properties": {
        "city": "Bridgeport",
        "latitude": "41.2126",
        "zip5": "06606",
        "state": "CT",
        "store_name": "Reservoir Deli And Grocery Llc",
        "zip4": "3960",
        "address2": null,
        "objectid": "103477",
        "longitude": "-73.1914",
        "county": "FAIRFIELD",
        "address": "878 Reservoir Ave"
      }
    },
    {
      "type": "Feature",
      "geometry": null,
      "properties": {
        "city": "Bridgeport",
        "latitude": "41.1893",
        "zip5": "06608",
        "state": "CT",
        "store_name": "Rite Aid 3619",
        "zip4": "1915",
        "address2": null,
        "objectid": "61241",
        "longitude": "-73.1806",
        "county": "FAIRFIELD",
        "address": "1060 E Main St"
      }
    },
    {
      "type": "Feature",
      "geometry": null,
      "properties": {
        "city": "Bridgeport",
        "latitude": "41.1875",
        "zip5": "06604",
        "state": "CT",
        "store_name": "Rosadel's African Market. Llc",
        "zip4": "3330",
        "address2": null,
        "objectid": "63813",
        "longitude": "-73.1943",
        "county": "FAIRFIELD",
        "address": "1761 Main St"
      }
    },
    {
      "type": "Feature",
      "geometry": null,
      "properties": {
        "city": "Bridgeport",
        "latitude": "41.2002",
        "zip5": "06608",
        "state": "CT",
        "store_name": "Saba Petroleum",
        "zip4": "1065",
        "address2": null,
        "objectid": "4248",
        "longitude": "-73.1839",
        "county": "FAIRFIELD",
        "address": "1360 Noble Ave"
      }
    },
    {
      "type": "Feature",
      "geometry": null,
      "properties": {
        "city": "Bridgeport",
        "latitude": "41.1691",
        "zip5": "06604",
        "state": "CT",
        "store_name": "SAMMY'S DOLLAR STORE",
        "zip4": "5858",
        "address2": "Ste 6",
        "objectid": "70762",
        "longitude": "-73.1941",
        "county": "FAIRFIELD",
        "address": "500 Park Ave"
      }
    },
    {
      "type": "Feature",
      "geometry": null,
      "properties": {
        "city": "Bridgeport",
        "latitude": "41.1723",
        "zip5": "06605",
        "state": "CT",
        "store_name": "Sam's Mart LLC",
        "zip4": "1931",
        "address2": null,
        "objectid": "138735",
        "longitude": "-73.2112",
        "county": "FAIRFIELD",
        "address": "1464 Fairfield Ave"
      }
    },
    {
      "type": "Feature",
      "geometry": null,
      "properties": {
        "city": "Bridgeport",
        "latitude": "41.1715",
        "zip5": "06607",
        "state": "CT",
        "store_name": "Santos Grocery Store 1",
        "zip4": "2430",
        "address2": null,
        "objectid": "63374",
        "longitude": "-73.1695",
        "county": "FAIRFIELD",
        "address": "189 Newfield Ave"
      }
    },
    {
      "type": "Feature",
      "geometry": null,
      "properties": {
        "city": "Bridgeport",
        "latitude": "41.1824",
        "zip5": "06604",
        "state": "CT",
        "store_name": "Save A Lot 869",
        "zip4": "2614",
        "address2": null,
        "objectid": "97835",
        "longitude": "-73.2047",
        "county": "FAIRFIELD",
        "address": "540 Pequonnock St"
      }
    },
    {
      "type": "Feature",
      "geometry": null,
      "properties": {
        "city": "Bridgeport",
        "latitude": "41.1654",
        "zip5": "06604",
        "state": "CT",
        "store_name": "Seaside Deli & Grocery 1",
        "zip4": "5251",
        "address2": null,
        "objectid": "246384",
        "longitude": "-73.1976",
        "county": "FAIRFIELD",
        "address": "292 Iranistan Ave"
      }
    },
    {
      "type": "Feature",
      "geometry": null,
      "properties": {
        "city": "Bridgeport",
        "latitude": "41.2224",
        "zip5": "06606",
        "state": "CT",
        "store_name": "Sherif Mart",
        "zip4": "1655",
        "address2": null,
        "objectid": "1940",
        "longitude": "-73.2307",
        "county": "FAIRFIELD",
        "address": "3751 Madison Ave"
      }
    },
    {
      "type": "Feature",
      "geometry": null,
      "properties": {
        "city": "Bridgeport",
        "latitude": "41.1937",
        "zip5": "06606",
        "state": "CT",
        "store_name": "Sofias Grocery Llc",
        "zip4": "5219",
        "address2": null,
        "objectid": "50231",
        "longitude": "-73.2055",
        "county": "FAIRFIELD",
        "address": "922 Madison Ave"
      }
    },
    {
      "type": "Feature",
      "geometry": null,
      "properties": {
        "city": "Bridgeport",
        "latitude": "41.2214",
        "zip5": "06606",
        "state": "CT",
        "store_name": "Stop & Shop 0670",
        "zip4": "1846",
        "address2": "Ste 1",
        "objectid": "46714",
        "longitude": "-73.2179",
        "county": "FAIRFIELD",
        "address": "4531 Main St"
      }
    },
    {
      "type": "Feature",
      "geometry": null,
      "properties": {
        "city": "Bridgeport",
        "latitude": "41.1651",
        "zip5": "06605",
        "state": "CT",
        "store_name": "Stop & Shop 698",
        "zip4": "2639",
        "address2": null,
        "objectid": "90556",
        "longitude": "-73.219",
        "county": "FAIRFIELD",
        "address": "2145 Fairfield Ave"
      }
    },
    {
      "type": "Feature",
      "geometry": null,
      "properties": {
        "city": "Bridgeport",
        "latitude": "41.1805",
        "zip5": "06604",
        "state": "CT",
        "store_name": "Stratfield Saturday Market",
        "zip4": "2411",
        "address2": null,
        "objectid": "229764",
        "longitude": "-73.212",
        "county": "FAIRFIELD",
        "address": "2100 North Ave"
      }
    },
    {
      "type": "Feature",
      "geometry": null,
      "properties": {
        "city": "Bridgeport",
        "latitude": "41.213",
        "zip5": "06610",
        "state": "CT",
        "store_name": "St. Vincent's Farm Stand",
        "zip4": "1467",
        "address2": null,
        "objectid": "229560",
        "longitude": "-73.1788",
        "county": "FAIRFIELD",
        "address": "2800 E Main St"
      }
    },
    {
      "type": "Feature",
      "geometry": null,
      "properties": {
        "city": "Bridgeport",
        "latitude": "41.1956",
        "zip5": "06610",
        "state": "CT",
        "store_name": "SUCCESS CORNER DELI & VARIETY",
        "zip4": "2528",
        "address2": null,
        "objectid": "167236",
        "longitude": "-73.1578",
        "county": "FAIRFIELD",
        "address": "184 Success Ave"
      }
    },
    {
      "type": "Feature",
      "geometry": null,
      "properties": {
        "city": "Bridgeport",
        "latitude": "41.2003",
        "zip5": "06610",
        "state": "CT",
        "store_name": "SUCCESS SUPERMARKET INC",
        "zip4": "2423",
        "address2": null,
        "objectid": "205500",
        "longitude": "-73.1565",
        "county": "FAIRFIELD",
        "address": "536 Success Ave"
      }
    },
    {
      "type": "Feature",
      "geometry": null,
      "properties": {
        "city": "Bridgeport",
        "latitude": "41.1846",
        "zip5": "06604",
        "state": "CT",
        "store_name": "Titi Groceries",
        "zip4": "3122",
        "address2": null,
        "objectid": "865",
        "longitude": "-73.2004",
        "county": "FAIRFIELD",
        "address": "351 Lexington Ave"
      }
    },
    {
      "type": "Feature",
      "geometry": null,
      "properties": {
        "city": "Bridgeport",
        "latitude": "41.1836",
        "zip5": "06607",
        "state": "CT",
        "store_name": "Tonys Market",
        "zip4": "1505",
        "address2": null,
        "objectid": "245272",
        "longitude": "-73.1565",
        "county": "FAIRFIELD",
        "address": "100 Bishop Ave"
      }
    },
    {
      "type": "Feature",
      "geometry": null,
      "properties": {
        "city": "Bridgeport",
        "latitude": "41.1773",
        "zip5": "06604",
        "state": "CT",
        "store_name": "Torres Food Market Llc",
        "zip4": "3812",
        "address2": null,
        "objectid": "31585",
        "longitude": "-73.1975",
        "county": "FAIRFIELD",
        "address": "165 Washington Ave"
      }
    },
    {
      "type": "Feature",
      "geometry": null,
      "properties": {
        "city": "Bridgeport",
        "latitude": "41.1852",
        "zip5": "06604",
        "state": "CT",
        "store_name": "Tu Bodeguita",
        "zip4": "2616",
        "address2": null,
        "objectid": "221901",
        "longitude": "-73.2014",
        "county": "FAIRFIELD",
        "address": "795 Grand St"
      }
    },
    {
      "type": "Feature",
      "geometry": null,
      "properties": {
        "city": "Bridgeport",
        "latitude": "41.1832",
        "zip5": "06608",
        "state": "CT",
        "store_name": "Turind LLC",
        "zip4": "2330",
        "address2": null,
        "objectid": "16140",
        "longitude": "-73.1809",
        "county": "FAIRFIELD",
        "address": "624 E Main St"
      }
    },